{"83.219.133.235": {"port": 8080, "org": "TIS Dialog LLC", "transport": "tcp", "version": null, "isp": "TIS Dialog LLC", "tags": null, "hostnames": ["ppp-static8-235.tis-dialog.ru"], "domains": ["tis-dialog.ru"], "vulns": null, "cloud": null, "http": {"status": 500, "title": "\u0423\u0422\u041c", "components": {}}, "location": {"latitude": 54.70649, "longitude": 20.51095, "city": "Kaliningrad", "country": null, "state": "KGD"}}, "109.195.198.5": {"port": 8888, "org": "CJSC ER-Telecom Holding Ul'yanovsk branch", "transport": "tcp", "version": null, "isp": "JSC ER-Telecom Holding", "tags": null, "hostnames": ["dynamicip-109-195-198-5.pppoe.ulsk.ertelecom.ru"], "domains": ["ertelecom.ru"], "vulns": null, "cloud": null, "http": {"status": 403, "title": "\u0423\u0422\u041c", "components": {}}, "location": {"latitude": 54.32824, "longitude": 48.38657, "city": "Ulyanovsk", "country": null, "state": "ULY"}}, "212.220.1.78": {"port": 8804, "org": "Dynamic distribution IP's for broadband services", "transport": "tcp", "version": null, "isp": "PJSC Rostelecom", "tags": null, "hostnames": ["adsl-212-220-1-78.nojabrsk.ru"], "domains": ["nojabrsk.ru"], "vulns": null, "cloud": null, "http": {"status": 200, "title": "\u0423\u0422\u041c", "components": {}}, "location": {"latitude": 63.78977, "longitude": 74.52301, "city": "Muravlenko", "country": null, "state": "YAN"}}, "109.235.190.202": {"port": 8092, "org": "Dmitriy V. Kozmenko", "transport": "tcp", "version": null, "isp": "Business Svyaz", "tags": null, "hostnames": ["host-109-235-190-202.bisv.ru"], "domains": ["bisv.ru"], "vulns": null, "cloud": null, "http": {"status": 200, "title": "\u0423\u0422\u041c", "components": {}}, "location": {"latitude": 43.59917, "longitude": 39.72569, "city": "Sochi", "country": null, "state": "KDA"}}, "178.72.91.153": {"port": 8080, "org": "JSC Regional Technical Centre", "transport": "tcp", "version": null, "isp": "MTS PJSC", "tags": null, "hostnames": [], "domains": [], "vulns": null, "cloud": null, "http": {"status": 403, "title": "\u0423\u0422\u041c", "components": {}}, "location": {"latitude": 57.15222, "longitude": 65.52722, "city": "Tyumen", "country": null, "state": "TYU"}}, "194.114.128.189": {"port": 8080, "org": "OOO Matritsa", "transport": "tcp", "version": null, "isp": "OOO Matritsa", "tags": null, "hostnames": ["host-194-114-128-189.bisv.ru"], "domains": ["bisv.ru"], "vulns": null, "cloud": null, "http": {"status": 403, "title": "\u0423\u0422\u041c", "components": {}}, "location": {"latitude": 43.59917, "longitude": 39.72569, "city": "Sochi", "country": null, "state": "KDA"}}, "109.72.239.149": {"port": 8080, "org": "OOO Gruppa MosLine", "transport": "tcp", "version": null, "isp": "OOO Gruppa MosLine", "tags": null, "hostnames": ["C46E1FFF2D1C.mldns.ru"], "domains": ["mldns.ru"], "vulns": null, "cloud": null, "http": {"status": 403, "title": "\u0423\u0422\u041c", "components": {}}, "location": {"latitude": 55.73433, "longitude": 37.04364, "city": "Nikolina Gora", "country": null, "state": "MOS"}}, "178.206.232.165": {"port": 8016, "org": "Kazan Broad-band access pools", "transport": "tcp", "version": null, "isp": "PJSC \"TATTELECOM\"", "tags": null, "hostnames": ["165.232.206.178.in-addr.arpa"], "domains": ["178.in-addr.arpa"], "vulns": null, "cloud": null, "http": {"status": 200, "title": "\u0423\u0422\u041c", "components": {}}, "location": {"latitude": 55.72545, "longitude": 52.41122, "city": "Naberezhnyye Chelny", "country": null, "state": "TA"}}, "91.244.74.50": {"port": 8200, "org": "VostokMediaSvyaz Ltd.", "transport": "tcp", "version": null, "isp": "VostokMediaSvyaz Ltd.", "tags": null, "hostnames": ["91-244-74-50.ms56.su"], "domains": ["ms56.su"], "vulns": null, "cloud": null, "http": {"status": 200, "title": "\u0423\u0422\u041c", "components": {}}, "location": {"latitude": 51.7847, "longitude": 55.0986, "city": "Orenburg", "country": null, "state": "ORE"}}, "79.174.186.91": {"port": 8080, "org": "Unitel, LLC", "transport": "tcp", "version": null, "isp": "Unitel, LLC", "tags": null, "hostnames": [], "domains": [], "vulns": null, "cloud": null, "http": {"status": 403, "title": "\u0423\u0422\u041c", "components": {}}, "location": {"latitude": 59.93863, "longitude": 30.31413, "city": "Saint Petersburg", "country": null, "state": "SPE"}}, "46.160.133.184": {"port": 9191, "org": "UGMK-Telecom network", "transport": "tcp", "version": null, "isp": "UGMK-Telecom LLC", "tags": null, "hostnames": ["host-46-160-133-184.ugmk-telecom.ru"], "domains": ["ugmk-telecom.ru"], "vulns": null, "cloud": null, "http": {"status": 200, "title": "\u0423\u0422\u041c", "components": {}}, "location": {"latitude": 51.51473, "longitude": 81.20613, "city": "Rubtsovsk", "country": null, "state": "ALT"}}, "91.215.88.190": {"port": 8080, "org": "Dagomys Telecom LLC", "transport": "tcp", "version": null, "isp": "Dagomys Telecom LLC", "tags": null, "hostnames": [], "domains": [], "vulns": null, "cloud": null, "http": {"status": 403, "title": "\u0423\u0422\u041c", "components": {}}, "location": {"latitude": 43.59917, "longitude": 39.72569, "city": "Sochi", "country": null, "state": "KDA"}}, "178.176.241.179": {"port": 8080, "org": "PLSC Megafon", "transport": "tcp", "version": null, "isp": "PJSC MegaFon", "tags": null, "hostnames": [], "domains": [], "vulns": null, "cloud": null, "http": {"status": 403, "title": "\u0423\u0422\u041c", "components": {}}, "location": {"latitude": 56.49771, "longitude": 84.97437, "city": "Tomsk", "country": null, "state": "TOM"}}, "217.13.218.218": {"port": 8080, "org": "OOO Post ltd", "transport": "tcp", "version": null, "isp": "OOO Post ltd", "tags": null, "hostnames": ["pppoe-static-217-13-218-218.ppp.kmv.ru"], "domains": ["kmv.ru"], "vulns": null, "cloud": null, "http": {"status": 403, "title": "\u0423\u0422\u041c", "components": {}}, "location": {"latitude": 44.04861, "longitude": 43.05944, "city": "Pyatigorsk", "country": null, "state": "STA"}}, "91.210.25.202": {"port": 8080, "org": "Dagomys Telecom LLC", "transport": "tcp", "version": null, "isp": "Dagomys Telecom LLC", "tags": null, "hostnames": ["ip-025-202.users.dagotel.ru"], "domains": ["dagotel.ru"], "vulns": null, "cloud": null, "http": {"status": 500, "title": "\u0423\u0422\u041c", "components": {}}, "location": {"latitude": 43.59917, "longitude": 39.72569, "city": "Sochi", "country": null, "state": "KDA"}}, "62.141.107.142": {"port": 8080, "org": "PJSC Vimpelcom", "transport": "tcp", "version": null, "isp": "PJSC Vimpelcom", "tags": null, "hostnames": [], "domains": [], "vulns": null, "cloud": null, "http": {"status": 403, "title": "\u0423\u0422\u041c", "components": {}}, "location": {"latitude": 55.75222, "longitude": 37.61556, "city": "Moscow", "country": null, "state": "MOW"}}, "5.130.41.127": {"port": 7170, "org": "Novotelecom Ltd", "transport": "tcp", "version": null, "isp": "Novotelecom Ltd", "tags": null, "hostnames": ["l5-130-41-127.novotelecom.ru"], "domains": ["novotelecom.ru"], "vulns": null, "cloud": null, "http": {"status": 403, "title": "\u0423\u0422\u041c", "components": {}}, "location": {"latitude": 55.0415, "longitude": 82.9346, "city": "Novosibirsk", "country": null, "state": "NVS"}}, "46.146.249.25": {"port": 8082, "org": "JSC ER-Telecom Perm'", "transport": "tcp", "version": null, "isp": "JSC ER-Telecom Holding", "tags": null, "hostnames": ["net249-25.perm.ertelecom.ru"], "domains": ["ertelecom.ru"], "vulns": null, "cloud": null, "http": {"status": 403, "title": "\u0423\u0422\u041c", "components": {}}, "location": {"latitude": 58.01046, "longitude": 56.25017, "city": "Perm", "country": null, "state": "PER"}}, "176.197.79.74": {"port": 8585, "org": "E-Light-Telecom", "transport": "tcp", "version": null, "isp": "E-Light-Telecom Ltd.", "tags": null, "hostnames": [], "domains": [], "vulns": null, "cloud": null, "http": {"status": 403, "title": "\u0423\u0422\u041c", "components": {}}, "location": {"latitude": 53.9059, "longitude": 86.719, "city": "Prokop\u2019yevsk", "country": null, "state": "KEM"}}, "78.36.200.121": {"port": 8080, "org": "OJSC Rostelecom North-West", "transport": "tcp", "version": null, "isp": "PJSC Rostelecom", "tags": null, "hostnames": ["121-200-36-78.baltnet.ru"], "domains": ["baltnet.ru"], "vulns": null, "cloud": null, "http": {"status": 500, "title": "\u0423\u0422\u041c", "components": {}}, "location": {"latitude": 54.70649, "longitude": 20.51095, "city": "Kaliningrad", "country": null, "state": "KGD"}}, "83.169.242.122": {"port": 8080, "org": "PJSC MegaFon", "transport": "tcp", "version": null, "isp": "PJSC MegaFon", "tags": null, "hostnames": [], "domains": [], "vulns": null, "cloud": null, "http": {"status": 403, "title": "\u0423\u0422\u041c", "components": {}}, "location": {"latitude": 44.89497, "longitude": 37.31623, "city": "Anapa", "country": null, "state": "KDA"}}, "5.130.182.54": {"port": 9090, "org": "Novotelecom Ltd", "transport": "tcp", "version": null, "isp": "Novotelecom Ltd", "tags": null, "hostnames": ["l5-130-182-54.novotelecom.ru"], "domains": ["novotelecom.ru"], "vulns": null, "cloud": null, "http": {"status": 403, "title": "\u0423\u0422\u041c", "components": {}}, "location": {"latitude": 55.0415, "longitude": 82.9346, "city": "Novosibirsk", "country": null, "state": "NVS"}}, "85.15.176.240": {"port": 8080, "org": "Dynamic distribution IP's for broadband services", "transport": "tcp", "version": null, "isp": "PJSC Rostelecom", "tags": null, "hostnames": ["240.176.access.ttknet.ru"], "domains": ["ttknet.ru"], "vulns": null, "cloud": null, "http": {"status": 200, "title": "\u0423\u0422\u041c", "components": {}}, "location": {"latitude": 57.1522, "longitude": 65.5272, "city": "Tyumen", "country": null, "state": "TYU"}}, "185.74.228.88": {"port": 8080, "org": "Sakhalin Cable Telesystems Ltd", "transport": "tcp", "version": null, "isp": "Sakhalin Cable Telesystems Ltd", "tags": null, "hostnames": ["ip-185-74-228-88.z64.ysk.scts.tv"], "domains": ["scts.tv"], "vulns": null, "cloud": null, "http": {"status": 403, "title": "\u0423\u0422\u041c", "components": {}}, "location": {"latitude": 46.95407, "longitude": 142.73603, "city": "Yuzhno-Sakhalinsk", "country": null, "state": "SAK"}}, "178.214.47.139": {"port": 8080, "org": "Telecom Service LLC", "transport": "tcp", "version": null, "isp": "Telecom Service LLC", "tags": null, "hostnames": ["host-178-214-47-139.forceline.net"], "domains": ["forceline.net"], "vulns": null, "cloud": null, "http": {"status": 500, "title": "\u0423\u0422\u041c", "components": {}}, "location": {"latitude": 55.75222, "longitude": 37.61556, "city": "Moscow", "country": null, "state": "MOW"}}, "78.29.14.108": {"port": 9999, "org": "Intersvyaz-2 JSC Net", "transport": "tcp", "version": null, "isp": "Intersvyaz-2 JSC", "tags": null, "hostnames": ["pool-78-29-14-108.is74.ru"], "domains": ["is74.ru"], "vulns": null, "cloud": null, "http": {"status": 200, "title": "\u0423\u0422\u041c", "components": {}}, "location": {"latitude": 55.15402, "longitude": 61.42915, "city": "Chelyabinsk", "country": null, "state": "CHE"}}, "95.188.88.223": {"port": 8080, "org": "OJSC Rostelecom", "transport": "tcp", "version": null, "isp": "PJSC Rostelecom", "tags": null, "hostnames": [], "domains": [], "vulns": null, "cloud": null, "http": {"status": 403, "title": "\u0423\u0422\u041c", "components": {}}, "location": {"latitude": 56.01839, "longitude": 92.86717, "city": "Krasnoyarsk", "country": null, "state": "KYA"}}, "93.190.23.102": {"port": 8080, "org": "Dmitriy V. Kozmenko", "transport": "tcp", "version": null, "isp": "Business Svyaz", "tags": null, "hostnames": ["host-93-190-23-102.bisv.ru"], "domains": ["bisv.ru"], "vulns": null, "cloud": null, "http": {"status": 403, "title": "\u0423\u0422\u041c", "components": {}}, "location": {"latitude": 43.6, "longitude": 39.7303, "city": "Sochi", "country": null, "state": "KDA"}}, "188.170.222.27": {"port": 8080, "org": "PJSC MegaFon", "transport": "tcp", "version": null, "isp": "PJSC MegaFon", "tags": null, "hostnames": [], "domains": [], "vulns": null, "cloud": null, "http": {"status": 403, "title": "\u0423\u0422\u041c", "components": {}}, "location": {"latitude": 43.59917, "longitude": 39.72569, "city": "Sochi", "country": null, "state": "KDA"}}, "188.168.136.10": {"port": 8080, "org": "(MS004164) Retail-KgdTTK,", "transport": "tcp", "version": null, "isp": "Joint Stock Company TransTeleCom", "tags": null, "hostnames": ["10.136.168.188.retail.ttk.ru"], "domains": ["ttk.ru"], "vulns": null, "cloud": null, "http": {"status": 403, "title": "\u0423\u0422\u041c", "components": {}}, "location": {"latitude": 54.70649, "longitude": 20.51095, "city": "Kaliningrad", "country": null, "state": "KGD"}}, "78.158.223.13": {"port": 8888, "org": "CRELCOM LLC", "transport": "tcp", "version": null, "isp": "FOP Sinev Maksim Viktorovich", "tags": null, "hostnames": ["pool.mirgiga.net"], "domains": ["mirgiga.net"], "vulns": null, "cloud": null, "http": {"status": 403, "title": "\u0423\u0422\u041c", "components": {}}, "location": {"latitude": 55.75222, "longitude": 37.61556, "city": "Moscow", "country": null, "state": "MOW"}}, "193.169.4.97": {"port": 8080, "org": "Lekstar Communication Ltd.", "transport": "tcp", "version": null, "isp": "Lekstar Communication Ltd.", "tags": null, "hostnames": ["host97-lan-193-169-4.svsreut.ru"], "domains": ["svsreut.ru"], "vulns": null, "cloud": null, "http": {"status": 200, "title": "\u0423\u0422\u041c", "components": {}}, "location": {"latitude": 55.76111, "longitude": 37.8575, "city": "Reutov", "country": null, "state": "MOS"}}, "31.173.135.57": {"port": 8080, "org": "PJSC MegaFon", "transport": "tcp", "version": null, "isp": "PJSC MegaFon", "tags": null, "hostnames": [], "domains": [], "vulns": null, "cloud": null, "http": {"status": 403, "title": "\u0423\u0422\u041c", "components": {}}, "location": {"latitude": 48.48271, "longitude": 135.08379, "city": "Khabarovsk", "country": null, "state": "KHA"}}, "95.131.181.242": {"port": 8084, "org": "OOO SPARK TELL", "transport": "tcp", "version": null, "isp": "OOO SPARK TELL", "tags": null, "hostnames": ["95.131.181.242.sparktell.net"], "domains": ["sparktell.net"], "vulns": null, "cloud": null, "http": {"status": 200, "title": "\u0423\u0422\u041c", "components": {}}, "location": {"latitude": 55.75222, "longitude": 37.61556, "city": "Moscow", "country": null, "state": "MOW"}}, "83.219.149.196": {"port": 8080, "org": "TIS Dialog LLC", "transport": "tcp", "version": null, "isp": "TIS Dialog LLC", "tags": null, "hostnames": ["ppp-static11-196.tis-dialog.ru"], "domains": ["tis-dialog.ru"], "vulns": null, "cloud": null, "http": {"status": 403, "title": "\u0423\u0422\u041c", "components": {}}, "location": {"latitude": 54.70649, "longitude": 20.51095, "city": "Kaliningrad", "country": null, "state": "KGD"}}, "217.168.69.194": {"port": 800, "org": "PJSC Rostelecom", "transport": "tcp", "version": null, "isp": "PJSC Rostelecom", "tags": null, "hostnames": ["194-69-168-217.baltnet.ru"], "domains": ["baltnet.ru"], "vulns": null, "cloud": null, "http": {"status": 200, "title": "\u0423\u0422\u041c", "components": {}}, "location": {"latitude": 54.70649, "longitude": 20.51095, "city": "Kaliningrad", "country": null, "state": "KGD"}}, "79.173.87.215": {"port": 8080, "org": "IT REGION Network", "transport": "tcp", "version": null, "isp": "IT REGION LTD", "tags": null, "hostnames": [], "domains": [], "vulns": null, "cloud": null, "http": {"status": 403, "title": "\u0423\u0422\u041c", "components": {}}, "location": {"latitude": 59.57639, "longitude": 30.12833, "city": "Gatchina", "country": null, "state": "LEN"}}, "31.131.71.117": {"port": 8080, "org": null, "transport": "tcp", "version": null, "isp": "PE Zinstein Hariton Vladimirovich", "tags": null, "hostnames": [], "domains": [], "vulns": null, "cloud": null, "http": {"status": 403, "title": "\u0423\u0422\u041c", "components": {}}, "location": {"latitude": 55.75222, "longitude": 37.61556, "city": "Moscow", "country": null, "state": "MOW"}}, "91.214.240.33": {"port": 8080, "org": "Altagen JSC", "transport": "tcp", "version": null, "isp": "Altagen JSC", "tags": null, "hostnames": [], "domains": [], "vulns": null, "cloud": null, "http": {"status": 403, "title": "\u0423\u0422\u041c", "components": {}}, "location": {"latitude": 55.7522, "longitude": 37.6156, "city": "Moscow", "country": null, "state": "MOW"}}, "85.237.38.235": {"port": 1000, "org": "PJSC Rostelecom, Penza branch", "transport": "tcp", "version": null, "isp": "PJSC Rostelecom", "tags": null, "hostnames": ["host-85-237-38-235.dsl.sura.ru"], "domains": ["sura.ru"], "vulns": null, "cloud": null, "http": {"status": 403, "title": "\u0423\u0422\u041c", "components": {}}, "location": {"latitude": 53.20066, "longitude": 45.00464, "city": "Penza", "country": null, "state": "PNZ"}}, "77.221.215.205": {"port": 8082, "org": "Joint Stock Company Smartkom", "transport": "tcp", "version": null, "isp": "Joint Stock Company Smartkom", "tags": null, "hostnames": [], "domains": [], "vulns": null, "cloud": null, "http": {"status": 500, "title": "\u0423\u0422\u041c", "components": {}}, "location": {"latitude": 54.99244, "longitude": 73.36859, "city": "Omsk", "country": null, "state": "OMS"}}, "194.12.124.199": {"port": 8080, "org": "Scientific-Industrial Enterprise Myst LLC", "transport": "tcp", "version": null, "isp": "Lancom Ltd.", "tags": null, "hostnames": ["host-199-124-12-194.sevstar.net"], "domains": ["sevstar.net"], "vulns": null, "cloud": null, "http": {"status": 403, "title": "\u0423\u0422\u041c", "components": {}}, "location": {"latitude": 45.2117, "longitude": 36.71609, "city": "Taman\u2019", "country": null, "state": "KDA"}}, "5.44.54.45": {"port": 8080, "org": "JSC ER-Telecom Holding", "transport": "tcp", "version": null, "isp": "JSC ER-Telecom Holding", "tags": null, "hostnames": [], "domains": [], "vulns": null, "cloud": null, "http": {"status": 500, "title": "\u0423\u0422\u041c", "components": {}}, "location": {"latitude": 59.93863, "longitude": 30.31413, "city": "Saint Petersburg", "country": null, "state": "SPE"}}, "83.219.130.106": {"port": 8080, "org": "TIS Dialog LLC", "transport": "tcp", "version": null, "isp": "TIS Dialog LLC", "tags": null, "hostnames": ["ppp-static-106.tis-dialog.ru"], "domains": ["tis-dialog.ru"], "vulns": null, "cloud": null, "http": {"status": 500, "title": "\u0423\u0422\u041c", "components": {}}, "location": {"latitude": 54.70649, "longitude": 20.51095, "city": "Kaliningrad", "country": null, "state": "KGD"}}, "46.174.11.254": {"port": 4040, "org": "OOO NETPLUS", "transport": "tcp", "version": null, "isp": "OOO NETPLUS", "tags": null, "hostnames": [], "domains": [], "vulns": null, "cloud": null, "http": {"status": 200, "title": "\u0423\u0422\u041c", "components": {}}, "location": {"latitude": 55.75222, "longitude": 37.61556, "city": "Moscow", "country": null, "state": "MOW"}}, "213.135.86.242": {"port": 8088, "org": "LLC Nauka-Svyaz", "transport": "tcp", "version": null, "isp": "LLC Nauka-Svyaz", "tags": null, "hostnames": [], "domains": [], "vulns": null, "cloud": null, "http": {"status": 200, "title": "\u0423\u0422\u041c", "components": {}}, "location": {"latitude": 56.85836, "longitude": 35.90057, "city": "Tver", "country": null, "state": "TVE"}}, "80.82.46.208": {"port": 8084, "org": "PJSC Rostelecom", "transport": "tcp", "version": null, "isp": "PJSC Rostelecom", "tags": null, "hostnames": ["fa208.46.fix-addr.vsi.ru"], "domains": ["vsi.ru"], "vulns": null, "cloud": null, "http": {"status": 200, "title": "\u0423\u0422\u041c", "components": {}}, "location": {"latitude": 51.67204, "longitude": 39.1843, "city": "Voronezh", "country": null, "state": "VOR"}}, "217.15.198.208": {"port": 8180, "org": "Internet services in Russia, Kaluga region", "transport": "tcp", "version": null, "isp": "MAXnet Systems Ltd.", "tags": null, "hostnames": ["vinask.Obninsk.ru"], "domains": ["Obninsk.ru"], "vulns": null, "cloud": null, "http": {"status": 200, "title": "\u0423\u0422\u041c", "components": {}}, "location": {"latitude": 55.09681, "longitude": 36.61006, "city": "Obninsk", "country": null, "state": "KLU"}}, "88.83.212.130": {"port": 8184, "org": "CenterTelecom Voronezh ISP", "transport": "tcp", "version": null, "isp": "PJSC Rostelecom", "tags": null, "hostnames": ["srv.degashotel.ru"], "domains": ["degashotel.ru"], "vulns": null, "cloud": null, "http": {"status": 403, "title": "\u0423\u0422\u041c", "components": {}}, "location": {"latitude": 51.67204, "longitude": 39.1843, "city": "Voronezh", "country": null, "state": "VOR"}}, "88.147.149.152": {"port": 8080, "org": "Network of Saratov branch of OJSC Volgatelecom", "transport": "tcp", "version": null, "isp": "PJSC Rostelecom", "tags": null, "hostnames": [], "domains": [], "vulns": null, "cloud": null, "http": {"status": 403, "title": "\u0423\u0422\u041c", "components": {}}, "location": {"latitude": 51.54056, "longitude": 46.00861, "city": "Saratov", "country": null, "state": "SAR"}}, "77.34.233.64": {"port": 8080, "org": "Dynamic Broadband Clients. Ussuriisk", "transport": "tcp", "version": null, "isp": "PJSC Rostelecom", "tags": null, "hostnames": [], "domains": [], "vulns": null, "cloud": null, "http": {"status": 200, "title": "\u0423\u0422\u041c", "components": {}}, "location": {"latitude": 43.10562, "longitude": 131.87353, "city": "Vladivostok", "country": null, "state": "PRI"}}, "83.219.139.140": {"port": 8080, "org": "TIS Dialog LLC", "transport": "tcp", "version": null, "isp": "TIS Dialog LLC", "tags": null, "hostnames": ["ppp-static6-140.tis-dialog.ru"], "domains": ["tis-dialog.ru"], "vulns": null, "cloud": null, "http": {"status": 500, "title": "\u0423\u0422\u041c", "components": {}}, "location": {"latitude": 54.70649, "longitude": 20.51095, "city": "Kaliningrad", "country": null, "state": "KGD"}}, "178.167.38.18": {"port": 8080, "org": "Flex Ltd.", "transport": "tcp", "version": null, "isp": "Flex Ltd.", "tags": null, "hostnames": ["178-167-38-18.dynvpn.flex.ru"], "domains": ["flex.ru"], "vulns": null, "cloud": null, "http": {"status": 403, "title": "\u0423\u0422\u041c", "components": {}}, "location": {"latitude": 55.7919, "longitude": 38.4422, "city": "Elektrostal\u2019", "country": null, "state": "MOS"}}, "109.195.113.216": {"port": 8095, "org": "CJSC ER-Telecom Holding Yaroslavl' branch", "transport": "tcp", "version": null, "isp": "JSC ER-Telecom Holding", "tags": null, "hostnames": ["mail.ringhotel.ru"], "domains": ["ringhotel.ru"], "vulns": null, "cloud": null, "http": {"status": 200, "title": "\u0423\u0422\u041c", "components": {}}, "location": {"latitude": 57.62987, "longitude": 39.87368, "city": "Yaroslavl", "country": null, "state": "YAR"}}, "89.20.45.184": {"port": 8095, "org": "SDK Ltd.", "transport": "tcp", "version": null, "isp": "Atmospherica Ltd.", "tags": null, "hostnames": [], "domains": [], "vulns": null, "cloud": null, "http": {"status": 403, "title": "\u0423\u0422\u041c", "components": {}}, "location": {"latitude": 55.75222, "longitude": 37.61556, "city": "Moscow", "country": null, "state": "MOW"}}, "185.216.19.170": {"port": 8888, "org": "Mega Tec LLC", "transport": "tcp", "version": null, "isp": "Mega Tec LLC", "tags": null, "hostnames": [], "domains": [], "vulns": null, "cloud": null, "http": {"status": 200, "title": "\u0423\u0422\u041c", "components": {}}, "location": {"latitude": 43.10562, "longitude": 131.87353, "city": "Vladivostok", "country": null, "state": "PRI"}}, "176.119.245.49": {"port": 8080, "org": "KTS Ltd.", "transport": "tcp", "version": null, "isp": "KTS Ltd.", "tags": null, "hostnames": [], "domains": [], "vulns": null, "cloud": null, "http": {"status": 403, "title": "\u0423\u0422\u041c", "components": {}}, "location": {"latitude": 50.0979, "longitude": 118.0369, "city": "Krasnokamensk", "country": null, "state": "ZAB"}}, "185.116.202.235": {"port": 8080, "org": "Telenet Solution Ltd", "transport": "tcp", "version": null, "isp": "Telenet Solution Ltd", "tags": null, "hostnames": [], "domains": [], "vulns": null, "cloud": null, "http": {"status": 403, "title": "\u0423\u0422\u041c", "components": {}}, "location": {"latitude": 55.75222, "longitude": 37.61556, "city": "Moscow", "country": null, "state": "MOW"}}, "89.179.33.242": {"port": 8080, "org": "PJSC Vimpelcom", "transport": "tcp", "version": null, "isp": "PJSC Vimpelcom", "tags": null, "hostnames": ["89-179-33-242.broadband.corbina.ru"], "domains": ["corbina.ru"], "vulns": null, "cloud": null, "http": {"status": 200, "title": "\u0423\u0422\u041c", "components": {}}, "location": {"latitude": 54.32824, "longitude": 48.38657, "city": "Ulyanovsk", "country": null, "state": "ULY"}}, "31.173.195.155": {"port": 8080, "org": "PJSC MegaFon", "transport": "tcp", "version": null, "isp": "PJSC MegaFon", "tags": null, "hostnames": [], "domains": [], "vulns": null, "cloud": null, "http": {"status": 403, "title": "\u0423\u0422\u041c", "components": {}}, "location": {"latitude": 44.72439, "longitude": 37.76752, "city": "Novorossiysk", "country": null, "state": "KDA"}}, "91.122.100.95": {"port": 8080, "org": "St.Petersburg Telephone Network", "transport": "tcp", "version": null, "isp": "PJSC Rostelecom", "tags": null, "hostnames": ["ppp91-122-100-95.pppoe.avangarddsl.ru"], "domains": ["avangarddsl.ru"], "vulns": null, "cloud": null, "http": {"status": 403, "title": "\u0423\u0422\u041c", "components": {}}, "location": {"latitude": 59.93863, "longitude": 30.31413, "city": "Saint Petersburg", "country": null, "state": "SPE"}}, "87.117.3.203": {"port": 8019, "org": "OJSC Rostelecom Macroregional Branch South", "transport": "tcp", "version": null, "isp": "PJSC Rostelecom", "tags": null, "hostnames": ["203.3.117.87.donpac.ru"], "domains": ["donpac.ru"], "vulns": null, "cloud": null, "http": {"status": 200, "title": "\u0423\u0422\u041c", "components": {}}, "location": {"latitude": 47.23135, "longitude": 39.72328, "city": "Rostov-na-Donu", "country": null, "state": "ROS"}}, "95.153.228.147": {"port": 8080, "org": "Kuban-GSM Local Registry", "transport": "tcp", "version": null, "isp": "MTS PJSC", "tags": null, "hostnames": [], "domains": [], "vulns": null, "cloud": null, "http": {"status": 403, "title": "\u0423\u0422\u041c", "components": {}}, "location": {"latitude": 45.04484, "longitude": 38.97603, "city": "Krasnodar", "country": null, "state": "KDA"}}, "77.39.2.221": {"port": 8080, "org": "OJSC Rostelecom Macroregional Branch South", "transport": "tcp", "version": null, "isp": "PJSC Rostelecom", "tags": null, "hostnames": ["host-77-39-2-221.stavropol.ru"], "domains": ["stavropol.ru"], "vulns": null, "cloud": null, "http": {"status": 403, "title": "\u0423\u0422\u041c", "components": {}}, "location": {"latitude": 45.0428, "longitude": 41.9734, "city": "Stavropol\u2019", "country": null, "state": "STA"}}, "213.159.199.85": {"port": 8899, "org": "Company Internet Technologies LLC", "transport": "tcp", "version": null, "isp": "Company Internet Technologies LLC", "tags": null, "hostnames": [], "domains": [], "vulns": null, "cloud": null, "http": {"status": 403, "title": "\u0423\u0422\u041c", "components": {}}, "location": {"latitude": 57.85158, "longitude": 61.69627, "city": "Alapayevsk", "country": null, "state": "SVE"}}, "95.154.109.232": {"port": 90, "org": "Octopusnet LTD", "transport": "tcp", "version": null, "isp": "Octopusnet LTD", "tags": null, "hostnames": [], "domains": [], "vulns": null, "cloud": null, "http": {"status": 200, "title": "\u0423\u0422\u041c", "components": {}}, "location": {"latitude": 43.10562, "longitude": 131.87353, "city": "Vladivostok", "country": null, "state": "PRI"}}, "94.19.201.33": {"port": 8080, "org": "SkyNet Ltd.", "transport": "tcp", "version": null, "isp": "SkyNet Ltd.", "tags": null, "hostnames": ["94.19.201.33.pool.sknt.ru"], "domains": ["sknt.ru"], "vulns": null, "cloud": null, "http": {"status": 200, "title": "\u0423\u0422\u041c", "components": {}}, "location": {"latitude": 59.93863, "longitude": 30.31413, "city": "Saint Petersburg", "country": null, "state": "SPE"}}, "193.232.162.10": {"port": 8080, "org": "Televisionaya str., 1", "transport": "tcp", "version": null, "isp": "Telezon-Seti LCC", "tags": null, "hostnames": [], "domains": [], "vulns": null, "cloud": null, "http": {"status": 403, "title": "\u0423\u0422\u041c", "components": {}}, "location": {"latitude": 56.01839, "longitude": 92.86717, "city": "Krasnoyarsk", "country": null, "state": "KYA"}}, "37.195.207.46": {"port": 8080, "org": "Novotelecom Ltd", "transport": "tcp", "version": null, "isp": "Novotelecom Ltd", "tags": null, "hostnames": ["l37-195-207-46.novotelecom.ru"], "domains": ["novotelecom.ru"], "vulns": null, "cloud": null, "http": {"status": 403, "title": "\u0423\u0422\u041c", "components": {}}, "location": {"latitude": 55.0415, "longitude": 82.9346, "city": "Novosibirsk", "country": null, "state": "NVS"}}, "176.118.12.9": {"port": 8080, "org": "MTS PJSC", "transport": "tcp", "version": null, "isp": "MTS PJSC", "tags": null, "hostnames": [], "domains": [], "vulns": null, "cloud": null, "http": {"status": 403, "title": "\u0423\u0422\u041c", "components": {}}, "location": {"latitude": 53.41861, "longitude": 59.04722, "city": "Magnitogorsk", "country": null, "state": "CHE"}}, "5.11.65.219": {"port": 4242, "org": "TIS Dialog LLC", "transport": "tcp", "version": null, "isp": "TIS Dialog LLC", "tags": null, "hostnames": ["ppp5-11-65-219.tis-dialog.ru"], "domains": ["tis-dialog.ru"], "vulns": null, "cloud": null, "http": {"status": 200, "title": "\u0423\u0422\u041c", "components": {}}, "location": {"latitude": 54.70649, "longitude": 20.51095, "city": "Kaliningrad", "country": null, "state": "KGD"}}, "78.36.203.133": {"port": 6580, "org": "OJSC Rostelecom North-West", "transport": "tcp", "version": null, "isp": "PJSC Rostelecom", "tags": null, "hostnames": ["133-203-36-78.baltnet.ru"], "domains": ["baltnet.ru"], "vulns": null, "cloud": null, "http": {"status": 200, "title": "\u0423\u0422\u041c", "components": {}}, "location": {"latitude": 54.70649, "longitude": 20.51095, "city": "Kaliningrad", "country": null, "state": "KGD"}}, "109.194.163.65": {"port": 8080, "org": "CJSC ER-Telecom Holding Tyumen' branch", "transport": "tcp", "version": null, "isp": "JSC ER-Telecom Holding", "tags": null, "hostnames": ["109x194x163x65.dynamic.tmn.ertelecom.ru"], "domains": ["ertelecom.ru"], "vulns": null, "cloud": null, "http": {"status": 403, "title": "\u0423\u0422\u041c", "components": {}}, "location": {"latitude": 57.1522, "longitude": 65.5272, "city": "Tyumen", "country": null, "state": "TYU"}}, "95.161.153.82": {"port": 8082, "org": "OBIT Ltd.", "transport": "tcp", "version": null, "isp": "OBIT Ltd.", "tags": null, "hostnames": ["95-161-153-82.obit.ru"], "domains": ["obit.ru"], "vulns": null, "cloud": null, "http": {"status": 403, "title": "\u0423\u0422\u041c", "components": {}}, "location": {"latitude": 59.93863, "longitude": 30.31413, "city": "Saint Petersburg", "country": null, "state": "SPE"}}, "94.136.197.122": {"port": 8080, "org": "MTS PJSC", "transport": "tcp", "version": null, "isp": "MTS PJSC", "tags": null, "hostnames": ["pppoe-94.136.197.122.ttel.ru"], "domains": ["ttel.ru"], "vulns": null, "cloud": null, "http": {"status": 403, "title": "\u0423\u0422\u041c", "components": {}}, "location": {"latitude": 57.62987, "longitude": 39.87368, "city": "Yaroslavl", "country": null, "state": "YAR"}}, "83.219.150.4": {"port": 8080, "org": "TIS Dialog LLC", "transport": "tcp", "version": null, "isp": "TIS Dialog LLC", "tags": null, "hostnames": ["ppp-static4-4.tis-dialog.ru"], "domains": ["tis-dialog.ru"], "vulns": null, "cloud": null, "http": {"status": 500, "title": "\u0423\u0422\u041c", "components": {}}, "location": {"latitude": 54.70649, "longitude": 20.51095, "city": "Kaliningrad", "country": null, "state": "KGD"}}, "178.206.236.1": {"port": 8080, "org": "Kazan Broad-band access pools", "transport": "tcp", "version": null, "isp": "PJSC TATTELECOM", "tags": null, "hostnames": ["1.236.206.178.in-addr.arpa"], "domains": ["178.in-addr.arpa"], "vulns": null, "cloud": null, "http": {"status": 403, "title": "\u0423\u0422\u041c", "components": {}}, "location": {"latitude": 55.72545, "longitude": 52.41122, "city": "Naberezhnyye Chelny", "country": null, "state": "TA"}}, "77.244.76.250": {"port": 7070, "org": "Internet services in Russia, Kaluga", "transport": "tcp", "version": null, "isp": "MAXnet Systems Ltd.", "tags": null, "hostnames": ["anenkisputnik.Kaluga.net"], "domains": ["Kaluga.net"], "vulns": null, "cloud": null, "http": {"status": 403, "title": "\u0423\u0422\u041c", "components": {}}, "location": {"latitude": 54.5293, "longitude": 36.27542, "city": "Kaluga", "country": null, "state": "KLU"}}, "83.219.142.204": {"port": 8080, "org": "TIS Dialog LLC", "transport": "tcp", "version": null, "isp": "TIS Dialog LLC", "tags": null, "hostnames": ["ppp-static7-204.tis-dialog.ru"], "domains": ["tis-dialog.ru"], "vulns": null, "cloud": null, "http": {"status": 403, "title": "\u0423\u0422\u041c", "components": {}}, "location": {"latitude": 54.70649, "longitude": 20.51095, "city": "Kaliningrad", "country": null, "state": "KGD"}}, "185.190.105.139": {"port": 8080, "org": "SimpleTelecom LLC", "transport": "tcp", "version": null, "isp": "SimpleTelecom LLC", "tags": null, "hostnames": ["host-185-190-105-139.ip.simple-telecom.ru"], "domains": ["simple-telecom.ru"], "vulns": null, "cloud": null, "http": {"status": 403, "title": "\u0423\u0422\u041c", "components": {}}, "location": {"latitude": 55.7522, "longitude": 37.6156, "city": "Moscow", "country": null, "state": "MOW"}}, "79.173.124.244": {"port": 8080, "org": "TK TOR Network", "transport": "tcp", "version": null, "isp": "TC TOR LLC", "tags": null, "hostnames": [], "domains": [], "vulns": null, "cloud": null, "http": {"status": 403, "title": "\u0423\u0422\u041c", "components": {}}, "location": {"latitude": 59.44712, "longitude": 32.02049, "city": "Kirishi", "country": null, "state": "LEN"}}, "83.219.158.75": {"port": 8080, "org": "TIS Dialog LLC", "transport": "tcp", "version": null, "isp": "TIS Dialog LLC", "tags": null, "hostnames": ["mx1.kaliningradbar.ru"], "domains": ["kaliningradbar.ru"], "vulns": null, "cloud": null, "http": {"status": 500, "title": "\u0423\u0422\u041c", "components": {}}, "location": {"latitude": 54.70649, "longitude": 20.51095, "city": "Kaliningrad", "country": null, "state": "KGD"}}, "185.108.196.126": {"port": 8080, "org": "MegaLink LLC", "transport": "tcp", "version": null, "isp": "MegaLink LLC", "tags": null, "hostnames": [], "domains": [], "vulns": null, "cloud": null, "http": {"status": 200, "title": "\u0423\u0422\u041c", "components": {}}, "location": {"latitude": 52.03171, "longitude": 113.50087, "city": "Chita", "country": null, "state": "ZAB"}}, "37.29.93.237": {"port": 8080, "org": "PJSC MegaFon", "transport": "tcp", "version": null, "isp": "PJSC MegaFon", "tags": null, "hostnames": [], "domains": [], "vulns": null, "cloud": null, "http": {"status": 403, "title": "\u0423\u0422\u041c", "components": {}}, "location": {"latitude": 53.18909, "longitude": 158.38135, "city": "Yelizovo", "country": null, "state": "KAM"}}, "92.100.37.228": {"port": 8080, "org": "St.Petersburg Telephone Network", "transport": "tcp", "version": null, "isp": "PJSC Rostelecom", "tags": null, "hostnames": ["ppp92-100-37-228.pppoe.avangarddsl.ru"], "domains": ["avangarddsl.ru"], "vulns": null, "cloud": null, "http": {"status": 200, "title": "\u0423\u0422\u041c", "components": {}}, "location": {"latitude": 59.8944, "longitude": 30.2642, "city": "Saint Petersburg", "country": null, "state": "SPE"}}, "146.66.167.19": {"port": 8080, "org": "NWLINK-NET4", "transport": "tcp", "version": null, "isp": "Nord-West Link NP", "tags": null, "hostnames": ["167-19.nwlink.spb.ru"], "domains": ["spb.ru"], "vulns": null, "cloud": null, "http": {"status": 403, "title": "\u0423\u0422\u041c", "components": {}}, "location": {"latitude": 59.8944, "longitude": 30.2642, "city": "Saint Petersburg", "country": null, "state": "SPE"}}, "109.233.168.19": {"port": 9999, "org": "IntTranspNet broadband", "transport": "tcp", "version": null, "isp": "Joint Stock Company TransTeleCom", "tags": null, "hostnames": ["ip109-233-168-19.ufa.host.ttk.ru"], "domains": ["ttk.ru"], "vulns": null, "cloud": null, "http": {"status": 200, "title": "\u0423\u0422\u041c", "components": {}}, "location": {"latitude": 54.59812, "longitude": 53.46313, "city": "Urussu", "country": null, "state": "TA"}}, "149.255.29.194": {"port": 8090, "org": "OOOSET Network", "transport": "tcp", "version": null, "isp": "OOO SET", "tags": null, "hostnames": ["ip-149.255.29.194.zelenaya.net"], "domains": ["zelenaya.net"], "vulns": null, "cloud": null, "http": {"status": 200, "title": "\u0423\u0422\u041c", "components": {}}, "location": {"latitude": 45.0428, "longitude": 41.9734, "city": "Stavropol\u2019", "country": null, "state": "STA"}}, "185.123.194.141": {"port": 8093, "org": "OOO Kurier", "transport": "tcp", "version": null, "isp": "OOO Kurier", "tags": null, "hostnames": ["141.pool-194.avantnet.ru"], "domains": ["avantnet.ru"], "vulns": null, "cloud": null, "http": {"status": 200, "title": "\u0423\u0422\u041c", "components": {}}, "location": {"latitude": 51.73733, "longitude": 36.18735, "city": "Kursk", "country": null, "state": "KRS"}}, "194.85.69.101": {"port": 8090, "org": "Leningradskiy prospekt, 31, str. 3", "transport": "tcp", "version": null, "isp": "Letit LLC", "tags": null, "hostnames": [], "domains": [], "vulns": null, "cloud": null, "http": {"status": 403, "title": "\u0423\u0422\u041c", "components": {}}, "location": {"latitude": 55.75222, "longitude": 37.61556, "city": "Moscow", "country": null, "state": "MOW"}}, "37.195.136.186": {"port": 8080, "org": "Novotelecom Ltd", "transport": "tcp", "version": null, "isp": "Novotelecom Ltd", "tags": null, "hostnames": ["l37-195-136-186.novotelecom.ru"], "domains": ["novotelecom.ru"], "vulns": null, "cloud": null, "http": {"status": 403, "title": "\u0423\u0422\u041c", "components": {}}, "location": {"latitude": 55.0415, "longitude": 82.9346, "city": "Novosibirsk", "country": null, "state": "NVS"}}, "185.18.5.74": {"port": 8888, "org": "MUP Center of Teleradio Company", "transport": "tcp", "version": null, "isp": "AO \"Teleradiocompany \"Odintsovo\"", "tags": null, "hostnames": [], "domains": [], "vulns": null, "cloud": null, "http": {"status": 403, "title": "\u0423\u0422\u041c", "components": {}}, "location": {"latitude": 55.67798, "longitude": 37.27773, "city": "Odintsovo", "country": null, "state": "MOS"}}, "31.211.47.193": {"port": 8080, "org": "OOO NETCOM, telecommunication company", "transport": "tcp", "version": null, "isp": "OOO NETCOM", "tags": null, "hostnames": [], "domains": [], "vulns": null, "cloud": null, "http": {"status": 403, "title": "\u0423\u0422\u041c", "components": {}}, "location": {"latitude": 56.49771, "longitude": 84.97437, "city": "Tomsk", "country": null, "state": "TOM"}}, "83.219.159.236": {"port": 8080, "org": "TIS Dialog LLC", "transport": "tcp", "version": null, "isp": "TIS Dialog LLC", "tags": null, "hostnames": ["ppp-static2-236.tis-dialog.ru"], "domains": ["tis-dialog.ru"], "vulns": null, "cloud": null, "http": {"status": 500, "title": "\u0423\u0422\u041c", "components": {}}, "location": {"latitude": 54.70649, "longitude": 20.51095, "city": "Kaliningrad", "country": null, "state": "KGD"}}, "212.24.45.186": {"port": 8101, "org": "JSC Avantel", "transport": "tcp", "version": null, "isp": "JSC Avantel", "tags": null, "hostnames": [], "domains": [], "vulns": null, "cloud": null, "http": {"status": 200, "title": "\u0423\u0422\u041c", "components": {}}, "location": {"latitude": 55.75222, "longitude": 37.61556, "city": "Moscow", "country": null, "state": "MOW"}}, "89.20.135.122": {"port": 8080, "org": "Internal network", "transport": "tcp", "version": null, "isp": "Net By Net Holding LLC", "tags": null, "hostnames": [], "domains": [], "vulns": null, "cloud": null, "http": {"status": 403, "title": "\u0423\u0422\u041c", "components": {}}, "location": {"latitude": 55.75222, "longitude": 37.61556, "city": "Moscow", "country": null, "state": "MOW"}}, "188.235.138.169": {"port": 8080, "org": "CJSC ER-Telecom Holding Saratov branch", "transport": "tcp", "version": null, "isp": "JSC ER-Telecom Holding", "tags": null, "hostnames": ["188x235x138x169.static-business.saratov.ertelecom.ru"], "domains": ["ertelecom.ru"], "vulns": null, "cloud": null, "http": {"status": 200, "title": "\u0423\u0422\u041c", "components": {}}, "location": {"latitude": 51.54056, "longitude": 46.00861, "city": "Saratov", "country": null, "state": "SAR"}}, "83.97.104.21": {"port": 8095, "org": "Trytech Ltd.", "transport": "tcp", "version": null, "isp": "Trytech Ltd.", "tags": null, "hostnames": [], "domains": [], "vulns": null, "cloud": null, "http": {"status": 200, "title": "\u0423\u0422\u041c", "components": {}}, "location": {"latitude": 56.13655, "longitude": 40.39658, "city": "Vladimir", "country": null, "state": "VLA"}}, "89.151.134.110": {"port": 8080, "org": "PJSC Rostelecom", "transport": "tcp", "version": null, "isp": "PJSC Rostelecom", "tags": null, "hostnames": ["110.134.151.89.chtts.ru"], "domains": ["chtts.ru"], "vulns": null, "cloud": null, "http": {"status": 403, "title": "\u0423\u0422\u041c", "components": {}}, "location": {"latitude": 56.13222, "longitude": 47.25194, "city": "Cheboksary", "country": null, "state": "CU"}}, "94.181.116.103": {"port": 9999, "org": "ZAO Company ER-Telecom", "transport": "tcp", "version": null, "isp": "JSC ER-Telecom Holding", "tags": null, "hostnames": ["94x181x116x103.static-business.izhevsk.ertelecom.ru"], "domains": ["ertelecom.ru"], "vulns": null, "cloud": null, "http": {"status": 200, "title": "\u0423\u0422\u041c", "components": {}}, "location": {"latitude": 56.84976, "longitude": 53.20448, "city": "Izhevsk", "country": null, "state": "UD"}}}