{"137.175.51.89": {"port": 3002, "org": "Wu Lin", "transport": "tcp", "version": null, "isp": "PEG TECH INC", "tags": null, "hostnames": [], "domains": [], "vulns": null, "cloud": null, "http": {"status": 200, "title": "ChatGPT Web", "components": {}}, "location": {"latitude": 37.33939, "longitude": -121.89496, "city": "San Jose", "country": null, "state": "CA"}}, "49.51.47.102": {"port": 80, "org": "Tencent cloud computing (Beijing) Co., Ltd.", "transport": "tcp", "version": "1.14.1", "isp": "Tencent Building, Kejizhongyi Avenue", "tags": null, "hostnames": [], "domains": [], "vulns": null, "cloud": null, "http": {"status": 200, "title": "ChatGPT Web", "components": {}}, "location": {"latitude": 37.3893, "longitude": -122.0783, "city": "Mountain View", "country": null, "state": "CA"}}, "64.112.41.76": {"port": 3002, "org": "CloudCone, LLC", "transport": "tcp", "version": null, "isp": "MULTACOM CORPORATION", "tags": null, "hostnames": ["mail.onlyhost.com.br"], "domains": ["onlyhost.com.br"], "vulns": null, "cloud": null, "http": {"status": 200, "title": "ChatGPT Web", "components": {}}, "location": {"latitude": 34.05223, "longitude": -118.24368, "city": "Los Angeles", "country": null, "state": "CA"}}, "104.225.145.113": {"port": 443, "org": "IT7 Networks Inc", "transport": "tcp", "version": "1.20.1", "isp": "IT7 Networks Inc", "tags": null, "hostnames": ["104.225.145.113.16clouds.com", "www.wakukuwa.info"], "domains": ["16clouds.com", "wakukuwa.info"], "vulns": null, "cloud": null, "http": {"status": 200, "title": "ChatGPT Web", "components": {}}, "location": {"latitude": 34.0443, "longitude": -118.2509, "city": "Los Angeles", "country": null, "state": "CA"}}, "101.33.43.133": {"port": 443, "org": "ACEVILLE PTE.LTD.", "transport": "tcp", "version": null, "isp": "Tencent Building, Kejizhongyi Avenue", "tags": null, "hostnames": ["ai.zwgjcn.com"], "domains": ["zwgjcn.com"], "vulns": null, "cloud": null, "http": {"status": 200, "title": "ChatGPT Web", "components": {}}, "location": {"latitude": 1.2842, "longitude": 103.8525, "city": "Singapore", "country": null, "state": "01"}}, "116.209.118.206": {"port": 3001, "org": "CHINANET Hubei province network", "transport": "tcp", "version": null, "isp": "CHINANET-BACKBONE", "tags": null, "hostnames": ["b.lbin.cc"], "domains": ["lbin.cc"], "vulns": null, "cloud": null, "http": {"status": 200, "title": "ChatGPT Web", "components": {}}, "location": {"latitude": 31.30408, "longitude": 120.59538, "city": "Suzhou", "country": null, "state": "JS"}}, "104.225.154.17": {"port": 443, "org": "IT7 Networks Inc", "transport": "tcp", "version": null, "isp": "IT7 Networks Inc", "tags": null, "hostnames": ["ai.moyunav.com", "gpt.moyunav.com", "104.225.154.17.16clouds.com"], "domains": ["moyunav.com", "16clouds.com"], "vulns": null, "cloud": null, "http": {"status": 200, "title": "ChatGPT Web", "components": {}}, "location": {"latitude": 34.0443, "longitude": -118.2509, "city": "Los Angeles", "country": null, "state": "CA"}}, "180.102.16.27": {"port": 180, "org": "Chinanet Jiangsu Province Network", "transport": "tcp", "version": null, "isp": "CHINANET Nanjing Jishan IDC network", "tags": null, "hostnames": [], "domains": [], "vulns": null, "cloud": null, "http": {"status": 200, "title": "ChatGPT Web", "components": {}}, "location": {"latitude": 32.06167, "longitude": 118.77778, "city": "Nanjing", "country": null, "state": "JS"}}, "43.153.181.26": {"port": 80, "org": "Asia Pacific Network Information Center, Pty. Ltd.", "transport": "tcp", "version": "1.13.12", "isp": "Tencent Building, Kejizhongyi Avenue", "tags": null, "hostnames": [], "domains": [], "vulns": null, "cloud": null, "http": {"status": 200, "title": "ChatGPT Web", "components": {}}, "location": {"latitude": 35.6895, "longitude": 139.69171, "city": "Tokyo", "country": null, "state": "13"}}, "108.61.223.7": {"port": 3002, "org": "Vultr Holdings, LLC", "transport": "tcp", "version": null, "isp": "The Constant Company, LLC", "tags": null, "hostnames": ["108.61.223.7.vultrusercontent.com"], "domains": ["vultrusercontent.com"], "vulns": null, "cloud": null, "http": {"status": 200, "title": "ChatGPT Web", "components": {}}, "location": {"latitude": 35.6895, "longitude": 139.69171, "city": "Tokyo", "country": null, "state": "13"}}, "38.55.133.22": {"port": 443, "org": "PEG TECH INC", "transport": "tcp", "version": null, "isp": "PEG TECH INC", "tags": null, "hostnames": ["chat.zhumomc.cn"], "domains": ["zhumomc.cn"], "vulns": null, "cloud": null, "http": {"status": 200, "title": "ChatGPT Web", "components": {}}, "location": {"latitude": 37.33939, "longitude": -121.89496, "city": "San Jose", "country": null, "state": "CA"}}, "43.163.200.174": {"port": 80, "org": "ACEVILLE PTE.LTD.", "transport": "tcp", "version": "1.13.12", "isp": null, "tags": null, "hostnames": [], "domains": [], "vulns": null, "cloud": null, "http": {"status": 200, "title": "ChatGPT Web", "components": {}}, "location": {"latitude": 1.2842, "longitude": 103.8525, "city": "Singapore", "country": null, "state": "01"}}, "38.60.35.208": {"port": 80, "org": "Cogent Communications", "transport": "tcp", "version": null, "isp": "Cogent Communications", "tags": null, "hostnames": [], "domains": [], "vulns": null, "cloud": null, "http": {"status": 200, "title": "ChatGPT Web", "components": {}}, "location": {"latitude": 38.9014, "longitude": -77.0504, "city": "Washington", "country": null, "state": "DC"}}, "47.88.95.35": {"port": 80, "org": "ALICLOUD-US", "transport": "tcp", "version": null, "isp": "Alibaba (US) Technology Co., Ltd.", "tags": null, "hostnames": [], "domains": [], "vulns": null, "cloud": null, "http": {"status": 200, "title": "ChatGPT Web", "components": {}}, "location": {"latitude": 37.33939, "longitude": -121.89496, "city": "San Jose", "country": null, "state": "CA"}}, "47.242.84.160": {"port": 443, "org": "Alibaba.com LLC", "transport": "tcp", "version": null, "isp": "Alibaba (US) Technology Co., Ltd.", "tags": null, "hostnames": ["chat.ssrspz.vip"], "domains": ["ssrspz.vip"], "vulns": null, "cloud": null, "http": {"status": 200, "title": "ChatGPT Web", "components": {}}, "location": {"latitude": 22.27832, "longitude": 114.17469, "city": "Hong Kong", "country": null, "state": ""}}, "43.155.139.64": {"port": 80, "org": "Asia Pacific Network Information Center, Pty. Ltd.", "transport": "tcp", "version": "1.13.12", "isp": "Tencent Building, Kejizhongyi Avenue", "tags": null, "hostnames": [], "domains": [], "vulns": null, "cloud": null, "http": {"status": 200, "title": "ChatGPT Web", "components": {}}, "location": {"latitude": 37.566, "longitude": 126.9784, "city": "Seoul", "country": null, "state": "11"}}, "124.222.7.247": {"port": 443, "org": "Tencent cloud computing (Beijing) Co., Ltd.", "transport": "tcp", "version": "1.23.3", "isp": "Shenzhen Tencent Computer Systems Company Limited", "tags": null, "hostnames": ["www.mzwonderfulu.icu", "mzwonderfulu.icu"], "domains": ["mzwonderfulu.icu"], "vulns": null, "cloud": null, "http": {"status": 200, "title": "ChatGPT Web", "components": {}}, "location": {"latitude": 31.22222, "longitude": 121.45806, "city": "Shanghai", "country": null, "state": "SH"}}, "156.241.159.19": {"port": 3002, "org": "HK DINGDIAN NETWORK LIMITED", "transport": "tcp", "version": null, "isp": "Aodao Inc", "tags": null, "hostnames": [], "domains": [], "vulns": null, "cloud": null, "http": {"status": 200, "title": "ChatGPT Web", "components": {}}, "location": {"latitude": 22.27832, "longitude": 114.17469, "city": "Hong Kong", "country": null, "state": ""}}, "172.245.79.194": {"port": 443, "org": "ColoCrossing", "transport": "tcp", "version": "1.14.1", "isp": "ColoCrossing", "tags": null, "hostnames": ["172-245-79-194-host.colocrossing.com"], "domains": ["colocrossing.com"], "vulns": null, "cloud": null, "http": {"status": 200, "title": "ChatGPT Web", "components": {}}, "location": {"latitude": 40.71427, "longitude": -74.00597, "city": "New York City", "country": null, "state": "NY"}}, "168.206.212.155": {"port": 3002, "org": "The Atomic Energy Board", "transport": "tcp", "version": null, "isp": "Clayer Limited", "tags": null, "hostnames": [], "domains": [], "vulns": null, "cloud": null, "http": {"status": 200, "title": "ChatGPT Web", "components": {}}, "location": {"latitude": 22.27832, "longitude": 114.17469, "city": "Hong Kong", "country": null, "state": ""}}, "152.70.101.57": {"port": 443, "org": "Oracle Corporation", "transport": "tcp", "version": "1.18.0", "isp": "Oracle Corporation", "tags": ["cloud"], "hostnames": [], "domains": [], "vulns": null, "cloud": {"region": "ap-tokyo-1", "service": null, "provider": "Oracle Cloud Infrastructure"}, "http": {"status": 200, "title": "ChatGPT Web", "components": {}}, "location": {"latitude": 35.8089, "longitude": 140.1185, "city": "Inzai", "country": null, "state": "12"}}, "43.153.172.123": {"port": 80, "org": "Asia Pacific Network Information Center, Pty. Ltd.", "transport": "tcp", "version": "1.13.12", "isp": "Tencent Building, Kejizhongyi Avenue", "tags": null, "hostnames": [], "domains": [], "vulns": null, "cloud": null, "http": {"status": 200, "title": "ChatGPT Web", "components": {}}, "location": {"latitude": 35.6895, "longitude": 139.69171, "city": "Tokyo", "country": null, "state": "13"}}, "172.93.40.52": {"port": 443, "org": "Cluster Logic Inc", "transport": "tcp", "version": null, "isp": "IT7 Networks Inc", "tags": null, "hostnames": ["172.93.40.52.16clouds.com", "nyo.one"], "domains": ["16clouds.com", "nyo.one"], "vulns": null, "cloud": null, "http": {"status": 200, "title": "ChatGPT Web", "components": {}}, "location": {"latitude": 34.0559, "longitude": -118.2666, "city": "Los Angeles", "country": null, "state": "CA"}}, "137.175.6.29": {"port": 443, "org": "Yang Jingliang", "transport": "tcp", "version": null, "isp": "PEG TECH INC", "tags": null, "hostnames": ["chatgpt.furuderika.cyou"], "domains": ["furuderika.cyou"], "vulns": null, "cloud": null, "http": {"status": 200, "title": "ChatGPT Web", "components": {}}, "location": {"latitude": 37.33939, "longitude": -121.89496, "city": "San Jose", "country": null, "state": "CA"}}, "23.147.230.201": {"port": 443, "org": "DediPath", "transport": "tcp", "version": "1.18.0", "isp": "DediPath", "tags": null, "hostnames": ["ai.cnjax.com"], "domains": ["cnjax.com"], "vulns": null, "cloud": null, "http": {"status": 200, "title": "ChatGPT Web", "components": {}}, "location": {"latitude": 40.71427, "longitude": -74.00597, "city": "New York City", "country": null, "state": "NY"}}, "156.241.158.6": {"port": 3002, "org": "HK DINGDIAN NETWORK LIMITED", "transport": "tcp", "version": null, "isp": "Aodao Inc", "tags": null, "hostnames": [], "domains": [], "vulns": null, "cloud": null, "http": {"status": 200, "title": "ChatGPT Web", "components": {}}, "location": {"latitude": 22.27832, "longitude": 114.17469, "city": "Hong Kong", "country": null, "state": ""}}, "119.47.82.216": {"port": 443, "org": "Forewin Telecom Group Limited, ISP at HK", "transport": "tcp", "version": null, "isp": "GigeNET", "tags": null, "hostnames": ["chatgpt.nnticket.com", "idc-216-82-47-119.hkt.cc"], "domains": ["nnticket.com", "hkt.cc"], "vulns": null, "cloud": null, "http": {"status": 200, "title": "ChatGPT Web", "components": {}}, "location": {"latitude": 22.27832, "longitude": 114.17469, "city": "Hong Kong", "country": null, "state": ""}}, "60.191.57.90": {"port": 8088, "org": "Zhejiang 160168 Information Network", "transport": "tcp", "version": "10.0", "isp": "CT-HangZhou-IDC", "tags": null, "hostnames": [], "domains": [], "vulns": null, "cloud": null, "http": {"status": 200, "title": "ChatGPT Web", "components": {}}, "location": {"latitude": 30.29365, "longitude": 120.16142, "city": "Hangzhou", "country": null, "state": "ZJ"}}, "50.93.205.192": {"port": 443, "org": "Jazz Network Inc.", "transport": "tcp", "version": "1.14.1", "isp": "Zhihua Lu", "tags": null, "hostnames": ["www.timelk.com", "timelk.com"], "domains": ["timelk.com"], "vulns": null, "cloud": null, "http": {"status": 200, "title": "ChatGPT Web", "components": {}}, "location": {"latitude": 34.05223, "longitude": -118.24368, "city": "Los Angeles", "country": null, "state": "CA"}}, "45.125.48.2": {"port": 80, "org": "LEMON TELECOMMUNICATIONS LIMITED", "transport": "tcp", "version": "1.21.6", "isp": "LEMON TELECOMMUNICATIONS LIMITED", "tags": null, "hostnames": [], "domains": [], "vulns": null, "cloud": null, "http": {"status": 200, "title": "ChatGPT Web", "components": {}}, "location": {"latitude": 22.27832, "longitude": 114.17469, "city": "Hong Kong", "country": null, "state": ""}}, "168.206.208.133": {"port": 3002, "org": "The Atomic Energy Board", "transport": "tcp", "version": null, "isp": "Clayer Limited", "tags": null, "hostnames": [], "domains": [], "vulns": null, "cloud": null, "http": {"status": 200, "title": "ChatGPT Web", "components": {}}, "location": {"latitude": 22.27832, "longitude": 114.17469, "city": "Hong Kong", "country": null, "state": ""}}, "141.147.177.147": {"port": 80, "org": "Oracle Corporation", "transport": "tcp", "version": null, "isp": "Oracle Corporation", "tags": ["cloud"], "hostnames": [], "domains": [], "vulns": null, "cloud": {"region": "ap-tokyo-1", "service": null, "provider": "Oracle Cloud Infrastructure"}, "http": {"status": 200, "title": "ChatGPT Web", "components": {}}, "location": {"latitude": 35.8089, "longitude": 140.1185, "city": "Inzai", "country": null, "state": "12"}}, "8.219.166.232": {"port": 3002, "org": "Alibaba.com Singapore E-Commerce Private Limited", "transport": "tcp", "version": null, "isp": "Alibaba (US) Technology Co., Ltd.", "tags": null, "hostnames": [], "domains": [], "vulns": null, "cloud": null, "http": {"status": 200, "title": "ChatGPT Web", "components": {}}, "location": {"latitude": 1.28967, "longitude": 103.85007, "city": "Singapore", "country": null, "state": "01"}}, "103.143.239.147": {"port": 81, "org": "HONG KONG LING JIAN ZHUO TECHNOLOGY CO., LIMITED", "transport": "tcp", "version": null, "isp": "YISU CLOUD LTD", "tags": null, "hostnames": [], "domains": [], "vulns": null, "cloud": null, "http": {"status": 200, "title": "ChatGPT Web", "components": {}}, "location": {"latitude": 34.05223, "longitude": -118.24368, "city": "Los Angeles", "country": null, "state": "CA"}}, "43.159.47.137": {"port": 3002, "org": "Asia Pacific Network Information Center, Pty. Ltd.", "transport": "tcp", "version": null, "isp": "Tencent Building, Kejizhongyi Avenue", "tags": null, "hostnames": [], "domains": [], "vulns": null, "cloud": null, "http": {"status": 200, "title": "ChatGPT Web", "components": {}}, "location": {"latitude": 1.28967, "longitude": 103.85007, "city": "Singapore", "country": null, "state": "01"}}, "119.47.82.28": {"port": 443, "org": "Forewin Telecom Group Limited, ISP at HK", "transport": "tcp", "version": null, "isp": "GigeNET", "tags": null, "hostnames": ["chatgpt.nnticket.com", "idc-28-82-47-119.hkt.cc"], "domains": ["nnticket.com", "hkt.cc"], "vulns": null, "cloud": null, "http": {"status": 200, "title": "ChatGPT Web", "components": {}}, "location": {"latitude": 22.27832, "longitude": 114.17469, "city": "Hong Kong", "country": null, "state": ""}}, "43.156.225.96": {"port": 3002, "org": "Asia Pacific Network Information Center, Pty. Ltd.", "transport": "tcp", "version": null, "isp": "Tencent Building, Kejizhongyi Avenue", "tags": null, "hostnames": [], "domains": [], "vulns": null, "cloud": null, "http": {"status": 200, "title": "ChatGPT Web", "components": {}}, "location": {"latitude": 1.28967, "longitude": 103.85007, "city": "Singapore", "country": null, "state": "01"}}, "49.235.97.196": {"port": 80, "org": "Tencent cloud computing (Beijing) Co., Ltd.", "transport": "tcp", "version": null, "isp": "Shenzhen Tencent Computer Systems Company Limited", "tags": ["cloud"], "hostnames": [], "domains": [], "vulns": null, "cloud": {"region": null, "service": null, "provider": "Tencent Cloud"}, "http": {"status": 200, "title": "ChatGPT Web", "components": {}}, "location": {"latitude": 31.22222, "longitude": 121.45806, "city": "Shanghai", "country": null, "state": "SH"}}, "192.210.206.203": {"port": 80, "org": "RackNerd LLC", "transport": "tcp", "version": "1.23.1", "isp": "ColoCrossing", "tags": null, "hostnames": [], "domains": [], "vulns": null, "cloud": null, "http": {"status": 200, "title": "ChatGPT Web", "components": {}}, "location": {"latitude": 37.33939, "longitude": -121.89496, "city": "San Jose", "country": null, "state": "CA"}}, "139.59.114.160": {"port": 443, "org": "DigitalOcean, LLC", "transport": "tcp", "version": "1.14.2", "isp": "DigitalOcean, LLC", "tags": ["cloud"], "hostnames": ["136361.xyz"], "domains": ["136361.xyz"], "vulns": null, "cloud": {"region": "sg-05", "service": null, "provider": "DigitalOcean"}, "http": {"status": 200, "title": "ChatGPT Web", "components": {}}, "location": {"latitude": 1.3215, "longitude": 103.6957, "city": "Singapore", "country": null, "state": "01"}}, "8.219.5.245": {"port": 443, "org": "Alibaba.com Singapore E-Commerce Private Limited", "transport": "tcp", "version": "1.18.0", "isp": "Alibaba (US) Technology Co., Ltd.", "tags": null, "hostnames": ["ai.amuletsky.top"], "domains": ["amuletsky.top"], "vulns": null, "cloud": null, "http": {"status": 200, "title": "ChatGPT Web", "components": {}}, "location": {"latitude": 1.28967, "longitude": 103.85007, "city": "Singapore", "country": null, "state": "01"}}, "156.241.152.9": {"port": 3002, "org": "HK DINGDIAN NETWORK LIMITED", "transport": "tcp", "version": null, "isp": "Aodao Inc", "tags": null, "hostnames": [], "domains": [], "vulns": null, "cloud": null, "http": {"status": 200, "title": "ChatGPT Web", "components": {}}, "location": {"latitude": 22.27832, "longitude": 114.17469, "city": "Hong Kong", "country": null, "state": ""}}, "8.222.154.155": {"port": 80, "org": "Alibaba.com Singapore E-Commerce Private Limited", "transport": "tcp", "version": "1.20.1", "isp": null, "tags": null, "hostnames": [], "domains": [], "vulns": null, "cloud": null, "http": {"status": 200, "title": "ChatGPT Web", "components": {}}, "location": {"latitude": 1.28967, "longitude": 103.85007, "city": "Singapore", "country": null, "state": "01"}}, "43.163.225.127": {"port": 80, "org": "ACEVILLE PTE.LTD.", "transport": "tcp", "version": "1.13.12", "isp": null, "tags": null, "hostnames": [], "domains": [], "vulns": null, "cloud": null, "http": {"status": 200, "title": "ChatGPT Web", "components": {}}, "location": {"latitude": 1.2842, "longitude": 103.8525, "city": "Singapore", "country": null, "state": "01"}}, "47.88.9.199": {"port": 80, "org": "ALICLOUD-US", "transport": "tcp", "version": "1.20.1", "isp": "Alibaba (US) Technology Co., Ltd.", "tags": null, "hostnames": [], "domains": [], "vulns": null, "cloud": null, "http": {"status": 200, "title": "ChatGPT Web", "components": {}}, "location": {"latitude": 37.33939, "longitude": -121.89496, "city": "San Jose", "country": null, "state": "CA"}}, "81.69.25.105": {"port": 443, "org": "Tencent Cloud Computing (Beijing) Co., Ltd", "transport": "tcp", "version": "1.20.1", "isp": "Shenzhen Tencent Computer Systems Company Limited", "tags": ["cloud"], "hostnames": ["jayxuz.com"], "domains": ["jayxuz.com"], "vulns": null, "cloud": {"region": null, "service": null, "provider": "Tencent Cloud"}, "http": {"status": 200, "title": "ChatGPT Web", "components": {}}, "location": {"latitude": 22.54554, "longitude": 114.0683, "city": "Shenzhen", "country": null, "state": "GD"}}, "13.229.255.220": {"port": 8099, "org": "Amazon Data Services Singapore", "transport": "tcp", "version": null, "isp": "Amazon.com, Inc.", "tags": ["cloud"], "hostnames": ["ec2-13-229-255-220.ap-southeast-1.compute.amazonaws.com"], "domains": ["amazonaws.com"], "vulns": null, "cloud": {"region": "ap-southeast-1", "service": "EC2", "provider": "Amazon"}, "http": {"status": 200, "title": "ChatGPT Web", "components": {}}, "location": {"latitude": 1.28967, "longitude": 103.85007, "city": "Singapore", "country": null, "state": "01"}}, "20.239.73.1": {"port": 443, "org": "Microsoft Corporation", "transport": "tcp", "version": "1.23.4", "isp": "Microsoft Corporation", "tags": ["cloud"], "hostnames": ["chat.zhenzhen.work"], "domains": ["zhenzhen.work"], "vulns": null, "cloud": {"region": "eastasia", "service": "AzureCloud", "provider": "Azure"}, "http": {"status": 200, "title": "ChatGPT Web", "components": {}}, "location": {"latitude": 22.27832, "longitude": 114.17469, "city": "Hong Kong", "country": null, "state": ""}}, "156.241.156.8": {"port": 3002, "org": "HK DINGDIAN NETWORK LIMITED", "transport": "tcp", "version": null, "isp": "Aodao Inc", "tags": null, "hostnames": [], "domains": [], "vulns": null, "cloud": null, "http": {"status": 200, "title": "ChatGPT Web", "components": {}}, "location": {"latitude": 22.27832, "longitude": 114.17469, "city": "Hong Kong", "country": null, "state": ""}}, "98.126.220.118": {"port": 80, "org": "Krypt Technologies", "transport": "tcp", "version": null, "isp": "Krypt Technologies", "tags": null, "hostnames": ["customer.krypt.com"], "domains": ["krypt.com"], "vulns": null, "cloud": null, "http": {"status": 200, "title": "ChatGPT Web", "components": {}}, "location": {"latitude": 34.05223, "longitude": -118.24368, "city": "Los Angeles", "country": null, "state": "CA"}}, "222.65.167.147": {"port": 6581, "org": "CHINANET shanghai province network", "transport": "tcp", "version": null, "isp": "China Telecom (Group)", "tags": null, "hostnames": ["147.167.65.222.broad.xw.sh.dynamic.163data.com.cn"], "domains": ["163data.com.cn"], "vulns": null, "cloud": null, "http": {"status": 200, "title": "ChatGPT Web", "components": {}}, "location": {"latitude": 31.22222, "longitude": 121.45806, "city": "Shanghai", "country": null, "state": "SH"}}, "8.219.210.83": {"port": 80, "org": "Alibaba.com Singapore E-Commerce Private Limited", "transport": "tcp", "version": null, "isp": "Alibaba (US) Technology Co., Ltd.", "tags": null, "hostnames": [], "domains": [], "vulns": null, "cloud": null, "http": {"status": 200, "title": "ChatGPT Web", "components": {}}, "location": {"latitude": 1.28967, "longitude": 103.85007, "city": "Singapore", "country": null, "state": "01"}}, "8.222.215.243": {"port": 5000, "org": "Alibaba.com Singapore E-Commerce Private Limited", "transport": "tcp", "version": null, "isp": null, "tags": null, "hostnames": [], "domains": [], "vulns": null, "cloud": null, "http": {"status": 200, "title": "ChatGPT Web", "components": {}}, "location": {"latitude": 1.28967, "longitude": 103.85007, "city": "Singapore", "country": null, "state": "01"}}, "103.97.178.43": {"port": 443, "org": "HONGKONG CLOUD NETWORK TECHNOLOGY CO., LIMITED", "transport": "tcp", "version": null, "isp": "High Family Technology Co., Limited", "tags": null, "hostnames": ["www.aisite.cc", "aisite.cc"], "domains": ["aisite.cc"], "vulns": null, "cloud": null, "http": {"status": 200, "title": "ChatGPT Web", "components": {}}, "location": {"latitude": 22.27832, "longitude": 114.17469, "city": "Hong Kong", "country": null, "state": ""}}, "114.237.189.228": {"port": 3002, "org": "Chinanet Jiangsu Province Network", "transport": "tcp", "version": null, "isp": "CHINANET-BACKBONE", "tags": null, "hostnames": [], "domains": [], "vulns": null, "cloud": null, "http": {"status": 200, "title": "ChatGPT Web", "components": {}}, "location": {"latitude": 34.59845, "longitude": 119.21556, "city": "Lianyungang", "country": null, "state": "JS"}}, "119.47.82.41": {"port": 443, "org": "Forewin Telecom Group Limited, ISP at HK", "transport": "tcp", "version": null, "isp": "GigeNET", "tags": null, "hostnames": ["chatgpt.nnticket.com", "idc-41-82-47-119.hkt.cc"], "domains": ["nnticket.com", "hkt.cc"], "vulns": null, "cloud": null, "http": {"status": 200, "title": "ChatGPT Web", "components": {}}, "location": {"latitude": 22.27832, "longitude": 114.17469, "city": "Hong Kong", "country": null, "state": ""}}, "119.47.82.227": {"port": 443, "org": "Forewin Telecom Group Limited, ISP at HK", "transport": "tcp", "version": null, "isp": "GigeNET", "tags": null, "hostnames": ["chatgpt.nnticket.com", "idc-227-82-47-119.hkt.cc"], "domains": ["nnticket.com", "hkt.cc"], "vulns": null, "cloud": null, "http": {"status": 200, "title": "ChatGPT Web", "components": {}}, "location": {"latitude": 22.27832, "longitude": 114.17469, "city": "Hong Kong", "country": null, "state": ""}}, "18.116.42.54": {"port": 80, "org": "Amazon Technologies Inc.", "transport": "tcp", "version": null, "isp": "Amazon.com, Inc.", "tags": ["cloud"], "hostnames": ["ec2-18-116-42-54.us-east-2.compute.amazonaws.com"], "domains": ["amazonaws.com"], "vulns": null, "cloud": {"region": "us-east-2", "service": "EC2", "provider": "Amazon"}, "http": {"status": 200, "title": "ChatGPT Web", "components": {}}, "location": {"latitude": 40.0334, "longitude": -83.15825, "city": "Hilliard", "country": null, "state": "OH"}}, "23.224.46.153": {"port": 443, "org": "CloudRadium L.L.C", "transport": "tcp", "version": null, "isp": "CNSERVERS LLC", "tags": null, "hostnames": ["lacuvipai.vmq.me"], "domains": ["vmq.me"], "vulns": null, "cloud": null, "http": {"status": 200, "title": "ChatGPT Web", "components": {}}, "location": {"latitude": 34.05223, "longitude": -118.24368, "city": "Los Angeles", "country": null, "state": "CA"}}, "216.127.184.243": {"port": 3002, "org": "MULTACOM CORPORATION", "transport": "tcp", "version": null, "isp": "MULTACOM CORPORATION", "tags": null, "hostnames": ["243-79-44-72-dedicated.multacom.com"], "domains": ["multacom.com"], "vulns": null, "cloud": null, "http": {"status": 200, "title": "ChatGPT Web", "components": {}}, "location": {"latitude": 34.05223, "longitude": -118.24368, "city": "Los Angeles", "country": null, "state": "CA"}}, "47.88.54.204": {"port": 80, "org": "ALICLOUD-US", "transport": "tcp", "version": "1.20.1", "isp": "Alibaba (US) Technology Co., Ltd.", "tags": null, "hostnames": [], "domains": [], "vulns": null, "cloud": null, "http": {"status": 200, "title": "ChatGPT Web", "components": {}}, "location": {"latitude": 37.33939, "longitude": -121.89496, "city": "San Jose", "country": null, "state": "CA"}}, "101.35.189.127": {"port": 3002, "org": "Tencent Cloud Computing (Beijing) Co., Ltd", "transport": "tcp", "version": null, "isp": "Shenzhen Tencent Computer Systems Company Limited", "tags": ["cloud"], "hostnames": [], "domains": [], "vulns": null, "cloud": {"region": null, "service": null, "provider": "Tencent Cloud"}, "http": {"status": 200, "title": "ChatGPT Web", "components": {}}, "location": {"latitude": 31.22222, "longitude": 121.45806, "city": "Shanghai", "country": null, "state": "SH"}}, "202.182.116.185": {"port": 443, "org": "The Constant Company, LLC", "transport": "tcp", "version": null, "isp": "The Constant Company, LLC", "tags": ["cloud"], "hostnames": ["gpt.socdns.xyz", "202.182.116.185.vultrusercontent.com"], "domains": ["socdns.xyz", "vultrusercontent.com"], "vulns": null, "cloud": {"region": null, "service": null, "provider": "Vultr"}, "http": {"status": 200, "title": "ChatGPT Web", "components": {}}, "location": {"latitude": 35.6895, "longitude": 139.69171, "city": "Tokyo", "country": null, "state": "13"}}, "168.206.211.139": {"port": 3002, "org": "The Atomic Energy Board", "transport": "tcp", "version": null, "isp": "Clayer Limited", "tags": null, "hostnames": [], "domains": [], "vulns": null, "cloud": null, "http": {"status": 200, "title": "ChatGPT Web", "components": {}}, "location": {"latitude": 22.27832, "longitude": 114.17469, "city": "Hong Kong", "country": null, "state": ""}}, "13.54.195.26": {"port": 443, "org": "Amazon Corporate Services Pty Ltd", "transport": "tcp", "version": "1.18.0", "isp": "Amazon.com, Inc.", "tags": ["cloud"], "hostnames": ["ec2-13-54-195-26.ap-southeast-2.compute.amazonaws.com", "zxf7460.cn", "www.zxf7460.cn"], "domains": ["amazonaws.com", "zxf7460.cn"], "vulns": null, "cloud": {"region": "ap-southeast-2", "service": "EC2", "provider": "Amazon"}, "http": {"status": 200, "title": "ChatGPT Web", "components": {"Google AdSense": {"categories": ["Advertising"]}}}, "location": {"latitude": -33.86785, "longitude": 151.20732, "city": "Sydney", "country": null, "state": "NSW"}}, "129.153.123.137": {"port": 80, "org": "Oracle Corporation", "transport": "tcp", "version": "1.18.0", "isp": "Oracle Corporation", "tags": ["cloud"], "hostnames": [], "domains": [], "vulns": null, "cloud": {"region": "us-phoenix-1", "service": null, "provider": "Oracle Cloud Infrastructure"}, "http": {"status": 200, "title": "ChatGPT Web", "components": {}}, "location": {"latitude": 33.4665, "longitude": -111.9984, "city": "Phoenix", "country": null, "state": "AZ"}}, "144.202.119.165": {"port": 3002, "org": "Vultr Holdings, LLC", "transport": "tcp", "version": null, "isp": "The Constant Company, LLC", "tags": ["cloud"], "hostnames": ["144.202.119.165.vultrusercontent.com"], "domains": ["vultrusercontent.com"], "vulns": null, "cloud": {"region": null, "service": null, "provider": "Vultr"}, "http": {"status": 200, "title": "ChatGPT Web", "components": {}}, "location": {"latitude": 34.0614, "longitude": -118.2385, "city": "Los Angeles", "country": null, "state": "CA"}}, "119.3.92.184": {"port": 80, "org": "Huawei Public Cloud Service (Huawei Software Technologies Ltd.Co)", "transport": "tcp", "version": null, "isp": "Huawei Cloud Service data center", "tags": null, "hostnames": ["ecs-119-3-92-184.compute.hwclouds-dns.com"], "domains": ["hwclouds-dns.com"], "vulns": null, "cloud": null, "http": {"status": 200, "title": "ChatGPT Web", "components": {}}, "location": {"latitude": 31.22222, "longitude": 121.45806, "city": "Shanghai", "country": null, "state": "SH"}}, "13.57.17.128": {"port": 80, "org": "Amazon Technologies Inc.", "transport": "tcp", "version": null, "isp": "Amazon.com, Inc.", "tags": ["cloud"], "hostnames": ["ec2-13-57-17-128.us-west-1.compute.amazonaws.com"], "domains": ["amazonaws.com"], "vulns": null, "cloud": {"region": "us-west-1", "service": "EC2", "provider": "Amazon"}, "http": {"status": 200, "title": "ChatGPT Web", "components": {}}, "location": {"latitude": 37.33939, "longitude": -121.89496, "city": "San Jose", "country": null, "state": "CA"}}, "82.157.186.198": {"port": 80, "org": "Tencent Cloud Computing (Beijing) Co., Ltd", "transport": "tcp", "version": "1.18.0", "isp": "Shenzhen Tencent Computer Systems Company Limited", "tags": ["cloud"], "hostnames": [], "domains": [], "vulns": null, "cloud": {"region": null, "service": null, "provider": "Tencent Cloud"}, "http": {"status": 200, "title": "ChatGPT Web", "components": {}}, "location": {"latitude": 39.9075, "longitude": 116.39723, "city": "Beijing", "country": null, "state": "BJ"}}, "124.223.78.9": {"port": 443, "org": "Tencent cloud computing (Beijing) Co., Ltd.", "transport": "tcp", "version": "1.18.0", "isp": "Shenzhen Tencent Computer Systems Company Limited", "tags": null, "hostnames": ["www.tulinspace.com", "tulinspace.com"], "domains": ["tulinspace.com"], "vulns": null, "cloud": null, "http": {"status": 200, "title": "ChatGPT Web", "components": {}}, "location": {"latitude": 31.22222, "longitude": 121.45806, "city": "Shanghai", "country": null, "state": "SH"}}, "18.177.234.120": {"port": 80, "org": "Amazon Data Services Japan", "transport": "tcp", "version": null, "isp": "Amazon.com, Inc.", "tags": ["cloud"], "hostnames": ["ec2-18-177-234-120.ap-northeast-1.compute.amazonaws.com"], "domains": ["amazonaws.com"], "vulns": null, "cloud": {"region": "ap-northeast-1", "service": "EC2", "provider": "Amazon"}, "http": {"status": 200, "title": "ChatGPT Web", "components": {}}, "location": {"latitude": 35.6895, "longitude": 139.69171, "city": "Tokyo", "country": null, "state": "13"}}, "132.145.95.108": {"port": 80, "org": "Oracle Public Cloud", "transport": "tcp", "version": null, "isp": "Oracle Corporation", "tags": ["cloud"], "hostnames": [], "domains": [], "vulns": null, "cloud": {"region": "ap-seoul-1", "service": null, "provider": "Oracle Cloud Infrastructure"}, "http": {"status": 200, "title": "ChatGPT Web", "components": {}}, "location": {"latitude": 37.5308, "longitude": 126.8751, "city": "Paripark", "country": null, "state": "11"}}, "43.163.237.38": {"port": 80, "org": "ACEVILLE PTE.LTD.", "transport": "tcp", "version": null, "isp": null, "tags": null, "hostnames": [], "domains": [], "vulns": null, "cloud": null, "http": {"status": 200, "title": "ChatGPT Web", "components": {}}, "location": {"latitude": 1.2842, "longitude": 103.8525, "city": "Singapore", "country": null, "state": "01"}}, "43.163.238.56": {"port": 80, "org": "ACEVILLE PTE.LTD.", "transport": "tcp", "version": "1.13.12", "isp": null, "tags": null, "hostnames": [], "domains": [], "vulns": null, "cloud": null, "http": {"status": 200, "title": "ChatGPT Web", "components": {}}, "location": {"latitude": 1.2842, "longitude": 103.8525, "city": "Singapore", "country": null, "state": "01"}}, "175.178.73.62": {"port": 80, "org": "Tencent cloud computing (Beijing) Co., Ltd.", "transport": "tcp", "version": "2.4.52", "isp": "Shenzhen Tencent Computer Systems Company Limited", "tags": null, "hostnames": [], "domains": [], "vulns": {"CVE-2022-0778": {"verified": false}, "CVE-2022-36760": {"verified": false}, "CVE-2022-29404": {"verified": false}, "CVE-2023-27522": {"verified": false}, "CVE-2022-4304": {"verified": false}, "CVE-2022-22720": {"verified": false}, "CVE-2022-28330": {"verified": false}, "CVE-2022-4450": {"verified": false}, "CVE-2022-1292": {"verified": false}, "CVE-2022-22721": {"verified": false}, "CVE-2006-20001": {"verified": false}, "CVE-2022-2068": {"verified": false}, "CVE-2023-0464": {"verified": false}, "CVE-2023-0465": {"verified": false}, "CVE-2022-31813": {"verified": false}, "CVE-2022-37436": {"verified": false}, "CVE-2023-0466": {"verified": false}, "CVE-2022-23943": {"verified": false}, "CVE-2023-0286": {"verified": false}, "CVE-2023-25690": {"verified": false}, "CVE-2022-26377": {"verified": false}, "CVE-2022-30556": {"verified": false}, "CVE-2023-0215": {"verified": false}, "CVE-2022-2097": {"verified": false}, "CVE-2022-28615": {"verified": false}, "CVE-2022-28614": {"verified": false}, "CVE-2022-22719": {"verified": false}}, "cloud": null, "http": {"status": 200, "title": "ChatGPT Web", "components": {}}, "location": {"latitude": 31.22222, "longitude": 121.45806, "city": "Shanghai", "country": null, "state": "SH"}}, "192.3.127.98": {"port": 8080, "org": "RackNerd LLC", "transport": "tcp", "version": null, "isp": "ColoCrossing", "tags": null, "hostnames": ["192-3-127-98-host.colocrossing.com"], "domains": ["colocrossing.com"], "vulns": null, "cloud": null, "http": {"status": 200, "title": "ChatGPT Web", "components": {}}, "location": {"latitude": 37.33939, "longitude": -121.89496, "city": "San Jose", "country": null, "state": "CA"}}, "3.106.134.216": {"port": 80, "org": "Amazon Corporate Services Pty Ltd", "transport": "tcp", "version": null, "isp": "Amazon.com, Inc.", "tags": ["cloud"], "hostnames": ["ec2-3-106-134-216.ap-southeast-2.compute.amazonaws.com"], "domains": ["amazonaws.com"], "vulns": null, "cloud": {"region": "ap-southeast-2", "service": "EC2", "provider": "Amazon"}, "http": {"status": 200, "title": "ChatGPT Web", "components": {}}, "location": {"latitude": -33.86785, "longitude": 151.20732, "city": "Sydney", "country": null, "state": "NSW"}}, "3.1.218.17": {"port": 80, "org": "Amazon Data Services Singapore", "transport": "tcp", "version": null, "isp": "Amazon.com, Inc.", "tags": ["cloud"], "hostnames": ["ec2-3-1-218-17.ap-southeast-1.compute.amazonaws.com"], "domains": ["amazonaws.com"], "vulns": null, "cloud": {"region": "ap-southeast-1", "service": "EC2", "provider": "Amazon"}, "http": {"status": 200, "title": "ChatGPT Web", "components": {}}, "location": {"latitude": 1.28967, "longitude": 103.85007, "city": "Singapore", "country": null, "state": "01"}}, "137.175.51.78": {"port": 3002, "org": "Wu Lin", "transport": "tcp", "version": null, "isp": "PEG TECH INC", "tags": null, "hostnames": [], "domains": [], "vulns": null, "cloud": null, "http": {"status": 200, "title": "ChatGPT Web", "components": {}}, "location": {"latitude": 37.33939, "longitude": -121.89496, "city": "San Jose", "country": null, "state": "CA"}}, "119.47.82.84": {"port": 443, "org": "Forewin Telecom Group Limited, ISP at HK", "transport": "tcp", "version": null, "isp": "GigeNET", "tags": null, "hostnames": ["chatgpt.nnticket.com", "idc-84-82-47-119.hkt.cc"], "domains": ["nnticket.com", "hkt.cc"], "vulns": null, "cloud": null, "http": {"status": 200, "title": "ChatGPT Web", "components": {}}, "location": {"latitude": 22.27832, "longitude": 114.17469, "city": "Hong Kong", "country": null, "state": ""}}, "152.32.188.117": {"port": 3002, "org": "UCLOUD INFORMATION TECHNOLOGY (HK) LIMITED", "transport": "tcp", "version": null, "isp": "UCLOUD INFORMATION TECHNOLOGY (HK) LIMITED", "tags": null, "hostnames": [], "domains": [], "vulns": null, "cloud": null, "http": {"status": 200, "title": "ChatGPT Web", "components": {}}, "location": {"latitude": 22.27832, "longitude": 114.17469, "city": "Hong Kong", "country": null, "state": ""}}, "39.98.77.202": {"port": 8080, "org": "Aliyun Computing Co., LTD", "transport": "tcp", "version": null, "isp": "Hangzhou Alibaba Advertising Co.,Ltd.", "tags": null, "hostnames": [], "domains": [], "vulns": null, "cloud": null, "http": {"status": 200, "title": "ChatGPT Web", "components": {}}, "location": {"latitude": 39.9075, "longitude": 116.39723, "city": "Beijing", "country": null, "state": "BJ"}}, "119.47.82.237": {"port": 443, "org": "Forewin Telecom Group Limited, ISP at HK", "transport": "tcp", "version": null, "isp": "GigeNET", "tags": null, "hostnames": ["chatgpt.nnticket.com", "idc-237-82-47-119.hkt.cc"], "domains": ["nnticket.com", "hkt.cc"], "vulns": null, "cloud": null, "http": {"status": 200, "title": "ChatGPT Web", "components": {}}, "location": {"latitude": 22.27832, "longitude": 114.17469, "city": "Hong Kong", "country": null, "state": ""}}, "43.163.212.86": {"port": 80, "org": "ACEVILLE PTE.LTD.", "transport": "tcp", "version": "1.13.12", "isp": null, "tags": null, "hostnames": [], "domains": [], "vulns": null, "cloud": null, "http": {"status": 200, "title": "ChatGPT Web", "components": {}}, "location": {"latitude": 1.2842, "longitude": 103.8525, "city": "Singapore", "country": null, "state": "01"}}, "172.96.224.66": {"port": 80, "org": "IT7 Networks Inc", "transport": "tcp", "version": null, "isp": "IT7 Networks Inc", "tags": null, "hostnames": ["172.96.224.66.16clouds.com"], "domains": ["16clouds.com"], "vulns": null, "cloud": null, "http": {"status": 200, "title": "ChatGPT Web", "components": {}}, "location": {"latitude": 34.0559, "longitude": -118.2666, "city": "Los Angeles", "country": null, "state": "CA"}}, "104.207.139.235": {"port": 3002, "org": "Vultr Holdings, LLC", "transport": "tcp", "version": null, "isp": "The Constant Company, LLC", "tags": ["cloud"], "hostnames": ["104.207.139.235.vultrusercontent.com"], "domains": ["vultrusercontent.com"], "vulns": null, "cloud": {"region": null, "service": null, "provider": "Vultr"}, "http": {"status": 200, "title": "ChatGPT Web", "components": {}}, "location": {"latitude": 41.85003, "longitude": -87.65005, "city": "Chicago", "country": null, "state": "IL"}}, "66.175.222.165": {"port": 6002, "org": "Linode", "transport": "tcp", "version": null, "isp": "Linode, LLC", "tags": ["cloud"], "hostnames": ["66-175-222-165.ip.linodeusercontent.com"], "domains": ["linodeusercontent.com"], "vulns": null, "cloud": {"region": "us-ca", "service": null, "provider": "Linode"}, "http": {"status": 200, "title": "ChatGPT Web", "components": {}}, "location": {"latitude": 37.54827, "longitude": -121.98857, "city": "Fremont", "country": null, "state": "CA"}}, "20.171.46.169": {"port": 443, "org": "Microsoft Corporation", "transport": "tcp", "version": "1.14.0", "isp": "Microsoft Corporation", "tags": ["cloud"], "hostnames": ["proxy.unique-gpt.top"], "domains": ["unique-gpt.top"], "vulns": null, "cloud": {"region": "westus3", "service": "AzureCloud", "provider": "Azure"}, "http": {"status": 200, "title": "ChatGPT Web", "components": {}}, "location": {"latitude": 33.4484, "longitude": -112.074, "city": "Phoenix", "country": null, "state": "AZ"}}, "43.153.171.31": {"port": 80, "org": "Asia Pacific Network Information Center, Pty. Ltd.", "transport": "tcp", "version": "1.13.12", "isp": "Tencent Building, Kejizhongyi Avenue", "tags": null, "hostnames": [], "domains": [], "vulns": null, "cloud": null, "http": {"status": 200, "title": "ChatGPT Web", "components": {}}, "location": {"latitude": 35.6895, "longitude": 139.69171, "city": "Tokyo", "country": null, "state": "13"}}, "119.47.82.73": {"port": 443, "org": "Forewin Telecom Group Limited, ISP at HK", "transport": "tcp", "version": null, "isp": "GigeNET", "tags": null, "hostnames": ["chatgpt.nnticket.com", "idc-73-82-47-119.hkt.cc"], "domains": ["nnticket.com", "hkt.cc"], "vulns": null, "cloud": null, "http": {"status": 200, "title": "ChatGPT Web", "components": {}}, "location": {"latitude": 22.27832, "longitude": 114.17469, "city": "Hong Kong", "country": null, "state": ""}}, "43.155.175.28": {"port": 80, "org": "Asia Pacific Network Information Center, Pty. Ltd.", "transport": "tcp", "version": "1.13.12", "isp": "Tencent Building, Kejizhongyi Avenue", "tags": null, "hostnames": [], "domains": [], "vulns": null, "cloud": null, "http": {"status": 200, "title": "ChatGPT Web", "components": {}}, "location": {"latitude": 37.566, "longitude": 126.9784, "city": "Seoul", "country": null, "state": "11"}}, "104.243.21.194": {"port": 443, "org": "IT7 Networks Inc", "transport": "tcp", "version": "1.23.4", "isp": "IT7 Networks Inc", "tags": null, "hostnames": ["104.243.21.194.16clouds.com", "loop.clod.buzz"], "domains": ["16clouds.com", "clod.buzz"], "vulns": null, "cloud": null, "http": {"status": 200, "title": "ChatGPT Web", "components": {}}, "location": {"latitude": 34.0443, "longitude": -118.2509, "city": "Los Angeles", "country": null, "state": "CA"}}, "45.147.51.95": {"port": 3002, "org": "xTom GmbH", "transport": "tcp", "version": null, "isp": "xTom", "tags": null, "hostnames": ["s16304.vps.hosting"], "domains": ["vps.hosting"], "vulns": null, "cloud": null, "http": {"status": 200, "title": "ChatGPT Web", "components": {}}, "location": {"latitude": 52.37403, "longitude": 4.88969, "city": "Amsterdam", "country": null, "state": "NH"}}, "156.241.157.8": {"port": 3002, "org": "HK DINGDIAN NETWORK LIMITED", "transport": "tcp", "version": null, "isp": "Aodao Inc", "tags": null, "hostnames": [], "domains": [], "vulns": null, "cloud": null, "http": {"status": 200, "title": "ChatGPT Web", "components": {}}, "location": {"latitude": 22.27832, "longitude": 114.17469, "city": "Hong Kong", "country": null, "state": ""}}, "43.143.220.233": {"port": 443, "org": "Tencent Cloud Computing (Beijing) Co., Ltd", "transport": "tcp", "version": "1.23.3", "isp": "Shenzhen Tencent Computer Systems Company Limited", "tags": ["cloud"], "hostnames": ["xuuuuuu.com"], "domains": ["xuuuuuu.com"], "vulns": null, "cloud": {"region": null, "service": null, "provider": "Tencent Cloud"}, "http": {"status": 200, "title": "ChatGPT Web", "components": {}}, "location": {"latitude": 39.9075, "longitude": 116.39723, "city": "Beijing", "country": null, "state": "BJ"}}, "172.245.34.137": {"port": 80, "org": "ColoCrossing", "transport": "tcp", "version": null, "isp": "ColoCrossing", "tags": null, "hostnames": ["172-245-34-137-host.colocrossing.com"], "domains": ["colocrossing.com"], "vulns": null, "cloud": null, "http": {"status": 200, "title": "ChatGPT Web", "components": {}}, "location": {"latitude": 41.85003, "longitude": -87.65005, "city": "Chicago", "country": null, "state": "IL"}}, "156.241.153.3": {"port": 3002, "org": "HK DINGDIAN NETWORK LIMITED", "transport": "tcp", "version": null, "isp": "Aodao Inc", "tags": null, "hostnames": [], "domains": [], "vulns": null, "cloud": null, "http": {"status": 200, "title": "ChatGPT Web", "components": {}}, "location": {"latitude": 22.27832, "longitude": 114.17469, "city": "Hong Kong", "country": null, "state": ""}}, "216.24.183.154": {"port": 3002, "org": "IT7 Networks Inc", "transport": "tcp", "version": null, "isp": "Fiber Logic Inc.", "tags": null, "hostnames": ["216.24.183.154.16clouds.com"], "domains": ["16clouds.com"], "vulns": null, "cloud": null, "http": {"status": 200, "title": "ChatGPT Web", "components": {}}, "location": {"latitude": 34.0559, "longitude": -118.2666, "city": "Los Angeles", "country": null, "state": "CA"}}, "43.130.61.252": {"port": 80, "org": "Asia Pacific Network Information Center, Pty. Ltd.", "transport": "tcp", "version": null, "isp": "Tencent Building, Kejizhongyi Avenue", "tags": null, "hostnames": [], "domains": [], "vulns": null, "cloud": null, "http": {"status": 200, "title": "ChatGPT Web", "components": {}}, "location": {"latitude": 37.3179, "longitude": -121.9349, "city": "San Jose", "country": null, "state": "CA"}}}